route,agency,date,route_id,stop_id,stop_name,stop_lat,stop_lon,direction_id,stop_sequence,trip_id,repeat_stop_order,route_short_name,route_long_name
29,testagency,2021-09-01,17056,6545,Sunset Blvd & Pacheco St,37.749808,-122.495065,0,29,10173384,1,29,SUNSET
29,testagency,2021-09-01,17056,6534,Sunset Blvd & Lake Merced Blvd,37.729804,-122.493655,0,39,10173384,1,29,SUNSET
29,testagency,2021-09-01,17056,5917,Persia Ave & Naples St ,37.720853,-122.431356,0,71,10173384,1,29,SUNSET
29,testagency,2021-09-01,17056,5903,Paul Ave & Gould St,37.722726,-122.397385,0,87,10173384,1,29,SUNSET
29,testagency,2021-09-01,17056,5323,Lincoln Way & 35th Ave,37.764754,-122.494708,0,19,10173384,1,29,SUNSET
29,testagency,2021-09-01,17056,5338,Mansell St & Brussels St ,37.720926,-122.403124,0,83,10173384,1,29,SUNSET
29,testagency,2021-09-01,17056,5791,Ocean Ave & Howth St,37.72286,-122.44929,0,62,10173384,1,29,SUNSET
29,testagency,2021-09-01,17056,5309,Lincoln Way & 19th Ave,37.765526,-122.47761,0,11,10173384,1,29,SUNSET
29,testagency,2021-09-01,17056,7325,Garfield St&Byxbee St ,37.719585,-122.469953,0,50,10173384,1,29,SUNSET
29,testagency,2021-09-01,17056,6363,San Bruno Ave & Paul Ave,37.723647,-122.401863,0,85,10173384,1,29,SUNSET
29,testagency,2021-09-01,17056,5911,Persia Ave & Madrid St ,37.721612,-122.432959,0,70,10173384,1,29,SUNSET
29,testagency,2021-09-01,17056,3706,Bowley St & Lincoln Blvd,37.792222,-122.481186,0,1,10173384,1,29,SUNSET
29,testagency,2021-09-01,17056,5783,Ocean Ave & Cayuga Ave,37.72357,-122.43853,0,67,10173384,1,29,SUNSET
29,testagency,2021-09-01,17056,5316,Lincoln Way & 27th Ave,37.765131,-122.486136,0,15,10173384,1,29,SUNSET
29,testagency,2021-09-01,17056,6951,Winston Dr & 20th Ave,37.726883,-122.475739,0,43,10173384,1,29,SUNSET
29,testagency,2021-09-01,17056,6537,Sunset Blvd & Moraga St,37.755402,-122.495458,0,25,10173384,1,29,SUNSET
29,testagency,2021-09-01,17056,4648,Fitzgerald Ave & Keith St ,37.722895,-122.394842,0,89,10173384,1,29,SUNSET
29,testagency,2021-09-01,17056,6561,Sunset Blvd & Wawona St,37.736764,-122.494152,0,36,10173384,1,29,SUNSET
29,testagency,2021-09-01,17056,4915,Grafton Ave & Plymouth Ave,37.719962,-122.456232,0,57,10173384,1,29,SUNSET
29,testagency,2021-09-01,17056,4207,Crespi Dr & Varela Ave,37.7201,-122.47594,0,45,10173384,1,29,SUNSET
29,testagency,2021-09-01,17056,6555,Sunset Blvd & Taraval St,37.742349,-122.494545,0,33,10173384,1,29,SUNSET
29,testagency,2021-09-01,17056,6531,Sunset Blvd & Kirkham St,37.759132,-122.495713,0,23,10173384,1,29,SUNSET
29,testagency,2021-09-01,17056,5349,Mansell St & San Bruno Ave ,37.721443,-122.401154,0,84,10173384,1,29,SUNSET
29,testagency,2021-09-01,17056,7326,Garfield St & Vernon St ,37.719594,-122.468155,0,51,10173384,1,29,SUNSET
29,testagency,2021-09-01,17056,6553,Sunset Blvd & Santiago St,37.744223,-122.494672,0,32,10173384,1,29,SUNSET
29,testagency,2021-09-01,17056,4908,Grafton Ave & Capitol Ave,37.719953,-122.45929,0,55,10173384,1,29,SUNSET
29,testagency,2021-09-01,17056,6535,Sunset Blvd & Lawton St,37.757267,-122.495585,0,24,10173384,1,29,SUNSET
29,testagency,2021-09-01,17056,5919,Persia Ave & Paris St ,37.722379,-122.434563,0,69,10173384,1,29,SUNSET
29,testagency,2021-09-01,17056,3498,25th Ave & El Camino Del Mar,37.787367,-122.485356,0,4,10173384,1,29,SUNSET
29,testagency,2021-09-01,17056,6548,Sunset Blvd & Quintara St,37.747578,-122.494915,0,30,10173384,1,29,SUNSET
29,testagency,2021-09-01,17056,6539,Sunset Blvd & Noriega St,37.753538,-122.495319,0,26,10173384,1,29,SUNSET
29,testagency,2021-09-01,17056,3562,37th Ave & Lincoln Way,37.76436,-122.496621,0,20,10173384,1,29,SUNSET
29,testagency,2021-09-01,17056,5908,Persia Ave & Brazil Ave ,37.717782,-122.422504,0,75,10173384,1,29,SUNSET
29,testagency,2021-09-01,17056,3500,25th Ave & Geary Blvd,37.780255,-122.484837,0,8,10173384,1,29,SUNSET
29,testagency,2021-09-01,17056,5974,Plymouth Ave & Ocean Ave,37.723772,-122.456049,0,59,10173384,1,29,SUNSET
29,testagency,2021-09-01,17056,5037,Holloway Ave & Junipero Serra Blvd,37.721485,-122.472713,0,47,10173384,1,29,SUNSET
29,testagency,2021-09-01,17056,5962,Plymouth Ave & Holloway Ave,37.721764,-122.456038,0,58,10173384,1,29,SUNSET
29,testagency,2021-09-01,17056,6564,Sunset Blvd & Yorba St,37.734783,-122.494059,0,37,10173384,1,29,SUNSET
29,testagency,2021-09-01,17056,5312,Lincoln Way & 23rd Ave,37.765329,-122.481839,0,13,10173384,1,29,SUNSET
29,testagency,2021-09-01,17056,3491,25th Ave & California St,37.784003,-122.485102,0,6,10173384,1,29,SUNSET
29,testagency,2021-09-01,17056,4910,Grafton Ave & Granada Ave,37.719962,-122.457251,0,56,10173384,1,29,SUNSET
29,testagency,2021-09-01,17056,6955,Winston Dr & Lake Merced Blvd ,37.726979,-122.48331,0,41,10173384,1,29,SUNSET
29,testagency,2021-09-01,17056,6953,Winston Dr & Buckingham Way ,37.727997,-122.478672,0,42,10173384,1,29,SUNSET
29,testagency,2021-09-01,17056,5318,Lincoln Way & 29th Ave,37.765032,-122.488267,0,16,10173384,1,29,SUNSET
29,testagency,2021-09-01,17056,3689,Beverly St & Garfield St,37.719728,-122.471739,0,49,10173384,1,29,SUNSET
29,testagency,2021-09-01,17056,5906,Persia Ave & Athens St ,37.720139,-122.429501,0,72,10173384,1,29,SUNSET
29,testagency,2021-09-01,17056,6541,Sunset Blvd & Ocean Ave,37.732026,-122.493862,0,38,10173384,1,29,SUNSET
29,testagency,2021-09-01,17056,5314,Lincoln Way & 25th Ave,37.765221,-122.483993,0,14,10173384,1,29,SUNSET
29,testagency,2021-09-01,17056,5915,Persia Ave & Moscow St ,37.719702,-122.428963,0,73,10173384,1,29,SUNSET
29,testagency,2021-09-01,17056,6529,Sunset Blvd & Judah St,37.761006,-122.495851,0,22,10173384,1,29,SUNSET
29,testagency,2021-09-01,17056,6559,Sunset Blvd & Vicente St,37.738619,-122.494279,0,35,10173384,1,29,SUNSET
29,testagency,2021-09-01,17056,5354,Mansell St & Visitacion Ave ,37.71877,-122.41136,0,78,10173384,1,29,SUNSET
29,testagency,2021-09-01,17056,5341,Mansell St & Goettingen St ,37.720677,-122.404098,0,82,10173384,1,29,SUNSET
29,testagency,2021-09-01,17056,5921,Persia Ave & Prague St ,37.718934,-122.427348,0,74,10173384,1,29,SUNSET
29,testagency,2021-09-01,17056,3489,25th Ave & Balboa St,37.776419,-122.48456,0,9,10173384,1,29,SUNSET
29,testagency,2021-09-01,17056,5800,Ocean Ave & Otsego Ave,37.72326,-122.44124,0,66,10173384,1,29,SUNSET
29,testagency,2021-09-01,17056,3495,25th Ave & Clement St,37.782147,-122.484975,0,7,10173384,1,29,SUNSET
29,testagency,2021-09-01,17056,6558,Sunset Blvd & Ulloa St,37.740118,-122.494383,0,34,10173384,1,29,SUNSET
29,testagency,2021-09-01,17056,6549,Sunset Blvd & Rivera St,37.746079,-122.494799,0,31,10173384,1,29,SUNSET
29,testagency,2021-09-01,17056,4247,Garfield St & Bright St,37.719791,-122.463642,0,53,10173384,1,29,SUNSET
29,testagency,2021-09-01,17056,5348,Mansell St & John F Shelley Dr,37.718718,-122.418633,0,76,10173384,1,29,SUNSET
29,testagency,2021-09-01,17056,6528,Sunset Blvd & Irving St,37.762496,-122.495955,0,21,10173384,1,29,SUNSET
29,testagency,2021-09-01,17056,5320,Lincoln Way & 31st Ave,37.764943,-122.490422,0,17,10173384,1,29,SUNSET
29,testagency,2021-09-01,17056,5321,Lincoln Way & 33rd Ave,37.764844,-122.492565,0,18,10173384,1,29,SUNSET
29,testagency,2021-09-01,17056,5340,Mansell St & Dartmouth St ,37.719376,-122.409058,0,79,10173384,1,29,SUNSET
29,testagency,2021-09-01,17056,4254,Garfield St & Victoria St,37.719613,-122.465452,0,52,10173384,1,29,SUNSET
29,testagency,2021-09-01,17056,5905,Paul Ave & Wheat St,37.723397,-122.400202,0,86,10173384,1,29,SUNSET
29,testagency,2021-09-01,17056,4912,Grafton Ave & Jules Ave,37.719952,-122.461329,0,54,10173384,1,29,SUNSET
29,testagency,2021-09-01,17056,5900,Paul Ave & Carr St,37.722485,-122.396343,0,88,10173384,1,29,SUNSET
29,testagency,2021-09-01,17056,4839,Lake Merced & Middlefield Dr,37.729441,-122.48629,0,40,10173384,1,29,SUNSET
29,testagency,2021-09-01,17056,5346,Mansell St & John F Shelley Dr,37.718039,-122.414258,0,77,10173384,1,29,SUNSET
29,testagency,2021-09-01,17056,3357,19TH AVE & Holloway Ave,37.72094,-122.475004,0,46,10173384,1,29,SUNSET
29,testagency,2021-09-01,17056,3705,Lincoln Blvd & Bowley Ave,37.788465,-122.482617,0,3,10173384,1,29,SUNSET
29,testagency,2021-09-01,17056,5351,Mansell St & Somerset St ,37.720418,-122.405094,0,81,10173384,1,29,SUNSET
29,testagency,2021-09-01,17056,5805,Ocean Ave & San Jose St,37.7229,-122.4444,0,64,10173384,1,29,SUNSET
29,testagency,2021-09-01,17056,5795,Ocean Ave & Lee St,37.723397,-122.454423,0,60,10173384,1,29,SUNSET
29,testagency,2021-09-01,17056,3023,Baker Beach Parking Lot SW,37.790249,-122.482263,0,2,10173384,1,29,SUNSET
29,testagency,2021-09-01,17056,5310,Lincoln Way & 21st Ave,37.765428,-122.479696,0,12,10173384,1,29,SUNSET
29,testagency,2021-09-01,17056,3356,19th Ave & Holloway Ave,37.72111,-122.475302,0,44,10173384,1,29,SUNSET
29,testagency,2021-09-01,17056,5781,Ocean Ave/Balboa Park Bart Station ,37.722951,-122.446749,0,63,10173384,1,29,SUNSET
29,testagency,2021-09-01,17056,5344,Mansell St & Hamilton St ,37.719892,-122.407088,0,80,10173384,1,29,SUNSET
29,testagency,2021-09-01,17056,5034,Holloway Ave & Beverly St,37.72161,-122.471797,0,48,10173384,1,29,SUNSET
29,testagency,2021-09-01,17056,5913,Persia Ave & Mission St ,37.722941,-122.435765,0,68,10173384,1,29,SUNSET
29,testagency,2021-09-01,17056,7036,Ocean Ave & Geneva Ave,37.723031,-122.452453,0,61,10173384,1,29,SUNSET
29,testagency,2021-09-01,17056,3502,25th Ave & Lake St,37.785868,-122.485241,0,5,10173384,1,29,SUNSET
29,testagency,2021-09-01,17056,6544,Sunset Blvd & Ortega St,37.751307,-122.495169,0,27,10173384,1,29,SUNSET
29,testagency,2021-09-01,17056,3499,25th Ave & Fulton St,37.772689,-122.484295,0,10,10173384,1,29,SUNSET
